[
  {
    "lineIndex": 32,
    "name": "Gino Sorbillo",
    "area": "Centro Storico",
    "oldLat": 40.85039,
    "oldLng": 14.25534,
    "lat": 40.85039,
    "lng": 14.25534,
    "distKm": 0,
    "osm": "Gino Sorbillo, 32, Via dei Tribunali, Rione Forcella, San Lorenzo, Municipalità 4, Napoli, Campania, 80138, Italia"
  },
  {
    "lineIndex": 33,
    "name": "L'Antica Pizzeria da Michele",
    "area": "Forcella",
    "oldLat": 40.84975,
    "oldLng": 14.26335,
    "lat": 40.84975,
    "lng": 14.26335,
    "distKm": 0,
    "osm": "L'Antica Pizzeria da Michele, 1, Via Cesare Sersale, Porta Nolana, Pendino, Municipalità 2, Napoli, Campania, 80139, Italia"
  },
  {
    "lineIndex": 34,
    "name": "Da Attilio",
    "area": "Pignasecca",
    "oldLat": 40.84524,
    "oldLng": 14.24829,
    "lat": 40.84524,
    "lng": 14.24829,
    "distKm": 0,
    "osm": "Pizzeria Da Attilio, 17, Via Pignasecca, Rione Carità, Montecalvario, Municipalità 2, Napoli, Campania, 80134, Italia"
  },
  {
    "lineIndex": 37,
    "name": "Pizzeria Salvo",
    "area": "Riviera di Chiaia",
    "oldLat": 40.83335,
    "oldLng": 14.239,
    "lat": 40.83335,
    "lng": 14.239,
    "distKm": 0,
    "osm": "Pizzeria Salvo, 271, Riviera di Chiaia, San Ferdinando, Municipalità 1, Napoli, Campania, 80121, Italia"
  },
  {
    "lineIndex": 38,
    "name": "50 Kalò",
    "area": "Mergellina",
    "oldLat": 40.8317,
    "oldLng": 14.22551,
    "lat": 40.8317,
    "lng": 14.22551,
    "distKm": 0,
    "osm": "50 kalò, 2, Piazza della Repubblica, Mergellina, Chiaia, Municipalità 1, Napoli, Campania, 80122, Italia"
  },
  {
    "lineIndex": 39,
    "name": "La Notizia",
    "area": "Vomero",
    "oldLat": 40.83563,
    "oldLng": 14.20981,
    "lat": 40.83563,
    "lng": 14.20981,
    "distKm": 0,
    "osm": "La Notizia, 53, Via Michelangelo da Caravaggio, Rione Piave, Fuorigrotta, Municipalità 10, Napoli, Campania, 80126, Italia"
  },
  {
    "lineIndex": 40,
    "name": "Diego Vitagliano (10)",
    "area": "Bagnoli",
    "oldLat": 40.81706,
    "oldLng": 14.17575,
    "lat": 40.81706,
    "lng": 14.17575,
    "distKm": 0,
    "osm": "10 Diego Vitagliano Pizzeria, 1, Via Nuova Agnano, Bagnoli, Municipalità 10, Coroglio, Napoli, Campania, 80125, Italia"
  },
  {
    "lineIndex": 41,
    "name": "La Figlia del Presidente",
    "area": "Centro Storico",
    "oldLat": 40.84879,
    "oldLng": 14.25946,
    "lat": 40.84882,
    "lng": 14.25947,
    "distKm": 0,
    "osm": "la figlia del presidente, Via del Grande Archivio, Pendino, Municipalità 2, Napoli, Campania, 80187, Italia"
  },
  {
    "lineIndex": 42,
    "name": "Errico Porzio",
    "area": "Multiple",
    "oldLat": 40.843,
    "oldLng": 14.201,
    "lat": 40.83099,
    "lng": 14.24443,
    "distKm": 3.89,
    "osm": "Errico Porzio, 11, Via Partenope, Pizzofalcone, San Ferdinando, Municipalità 1, Napoli, Campania, 80121, Italia"
  },
  {
    "lineIndex": 43,
    "name": "Di Matteo",
    "area": "Via dei Tribunali",
    "oldLat": 40.85129,
    "oldLng": 14.25802,
    "lat": 40.85129,
    "lng": 14.25802,
    "distKm": 0,
    "osm": "Antica Pizzeria Di Matteo, 94, Via dei Tribunali, Rione Forcella, San Lorenzo, Municipalità 4, Napoli, Campania, 80138, Italia"
  },
  {
    "lineIndex": 51,
    "name": "Puok Burger",
    "area": "Multiple",
    "oldLat": 40.8482,
    "oldLng": 14.254,
    "lat": 40.84863,
    "lng": 14.25584,
    "distKm": 0.16,
    "osm": "Puok Burger Store, 9, Piazzetta del Nilo, Porto, Municipalità 2, Napoli, Campania, 80134, Italia"
  },
  {
    "lineIndex": 60,
    "name": "Thai e Vai",
    "area": "Vomero",
    "oldLat": 40.844,
    "oldLng": 14.229,
    "lat": 40.85128,
    "lng": 14.25975,
    "distKm": 2.71,
    "osm": "Thai e Vai Duomo, Via Duomo, Rione Forcella, San Lorenzo, Municipalità 2, Napoli, Campania, 80138, Italia"
  },
  {
    "lineIndex": 62,
    "name": "Miss Bao",
    "area": "Centro",
    "oldLat": 40.8468,
    "oldLng": 14.253,
    "lat": 40.85332,
    "lng": 14.26902,
    "distKm": 1.53,
    "osm": "Miss Bao, Via Milano, Rione Vasto, Vicaria, Municipalità 4, Napoli, Campania, 80142, Italia"
  },
  {
    "lineIndex": 63,
    "name": "Loong Xii Xii",
    "area": "Centro",
    "oldLat": 40.8472,
    "oldLng": 14.2518,
    "lat": 40.85028,
    "lng": 14.27868,
    "distKm": 2.29,
    "osm": "Loong Xii Xii, Via Galileo Ferraris, Vicaria, Municipalità 4, Napoli, Campania, 80142, Italia"
  },
  {
    "lineIndex": 68,
    "name": "Barbeqool",
    "area": "Vomero",
    "oldLat": 40.84508,
    "oldLng": 14.22919,
    "lat": 40.84508,
    "lng": 14.22919,
    "distKm": 0,
    "osm": "Barbeqool, Via Giovanni Merliani, Rione Antignano, Vomero, Municipalità 5, Napoli, Campania, 80127, Italia"
  },
  {
    "lineIndex": 70,
    "name": "Red Marrakech",
    "area": "Centro",
    "oldLat": 40.84727,
    "oldLng": 14.25332,
    "lat": 40.84727,
    "lng": 14.25332,
    "distKm": 0,
    "osm": "Red marrakech, Via Santa Chiara, Rione Carità, Porto, Municipalità 2, Napoli, Campania, 80100, Italia"
  },
  {
    "lineIndex": 72,
    "name": "Neapolis",
    "area": "Centro",
    "oldLat": 40.8488,
    "oldLng": 14.2548,
    "lat": 40.85808,
    "lng": 14.28184,
    "distKm": 2.5,
    "osm": "Napoli Centro Direzionale, Viale Umberto Terracini, Centro Direzionale di Napoli, Municipalità 4, Napoli, Campania, 80143, Italia"
  },
  {
    "lineIndex": 73,
    "name": "Giorgos",
    "area": "Centro",
    "oldLat": 40.85049,
    "oldLng": 14.25076,
    "lat": 40.85049,
    "lng": 14.25076,
    "distKm": 0,
    "osm": "Giorgos, Via Vincenzo Bellini, San Lorenzo, Municipalità 4, Napoli, Campania, 80135, Italia"
  },
  {
    "lineIndex": 83,
    "name": "Granfuoco",
    "area": "Posillipo",
    "oldLat": 40.808,
    "oldLng": 14.205,
    "lat": 40.80302,
    "lng": 14.18622,
    "distKm": 1.67,
    "osm": "Granfuoco Braceria, Viale Virgilio, Posillipo, Municipalità 1, Coroglio, Napoli, Campania, 80123, Italia"
  },
  {
    "lineIndex": 90,
    "name": "A Figlia d'o Marenaro",
    "area": "Via Foria",
    "oldLat": 40.85936,
    "oldLng": 14.26223,
    "lat": 40.85936,
    "lng": 14.26223,
    "distKm": 0,
    "osm": "'a Figlia d'o Marenaro, 180, Via Foria, Borgo Sant'Antonio Abate, San Lorenzo, Municipalità 4, Napoli, Campania, 80137, Italia"
  },
  {
    "lineIndex": 91,
    "name": "Miracolo dei Pesci",
    "area": "Mergellina",
    "oldLat": 40.82323,
    "oldLng": 14.21738,
    "lat": 40.82323,
    "lng": 14.21738,
    "distKm": 0,
    "osm": "Il Miracolo dei Pesci, Largo Sermoneta, Mergellina, Chiaia, Municipalità 1, Napoli, Campania, 80122, Italia"
  },
  {
    "lineIndex": 92,
    "name": "Pescheria Azzurra",
    "area": "Centro",
    "oldLat": 40.84663,
    "oldLng": 14.24711,
    "lat": 40.84663,
    "lng": 14.24711,
    "distKm": 0,
    "osm": "Pescheria Azzurra, Via Portamedina, Rione Montesanto, Montecalvario, Municipalità 2, Napoli, Campania, 80135, Italia"
  },
  {
    "lineIndex": 93,
    "name": "Pescheria Mattiucci",
    "area": "Chiaia",
    "oldLat": 40.83494,
    "oldLng": 14.23992,
    "lat": 40.83494,
    "lng": 14.23992,
    "distKm": 0,
    "osm": "Pescheria Mattiucci, Via Giuseppe Ferrigni, San Ferdinando, Municipalità 1, Napoli, Campania, 80121, Italia"
  },
  {
    "lineIndex": 95,
    "name": "Antichi Sapori Partenopei",
    "area": "Chiaia",
    "oldLat": 40.83573,
    "oldLng": 14.24347,
    "lat": 40.83573,
    "lng": 14.24347,
    "distKm": 0,
    "osm": "Antichi Sapori Partenopei, Via Chiaia, Pizzofalcone, San Ferdinando, Municipalità 1, Napoli, Campania, 80132, Italia"
  },
  {
    "lineIndex": 96,
    "name": "A Taverna d'e Zoccole",
    "area": "Quartieri Spagnoli",
    "oldLat": 40.84189,
    "oldLng": 14.24814,
    "lat": 40.84189,
    "lng": 14.24814,
    "distKm": 0,
    "osm": "'A Taverna d''e Zoccole, 96, Vico Lungo Gelso, Quartieri Spagnoli, Montecalvario, Municipalità 2, Napoli, Campania, 80132, Italia"
  },
  {
    "lineIndex": 97,
    "name": "Sottocoperta",
    "area": "Centro",
    "oldLat": 40.85035,
    "oldLng": 14.25076,
    "lat": 40.85035,
    "lng": 14.25076,
    "distKm": 0,
    "osm": "Sottocoperta Taverna di Mare, Via Vincenzo Bellini, San Lorenzo, Municipalità 4, Napoli, Campania, 80135, Italia"
  },
  {
    "lineIndex": 98,
    "name": "Zi' Teresa",
    "area": "Borgo Marinari",
    "oldLat": 40.82967,
    "oldLng": 14.24813,
    "lat": 40.82967,
    "lng": 14.24813,
    "distKm": 0,
    "osm": "Zi' Teresa dal 1860, Via Partenope, Pizzofalcone, San Ferdinando, Municipalità 1, Napoli, Campania, 80121, Italia"
  },
  {
    "lineIndex": 99,
    "name": "Transatlantico",
    "area": "Borgo Marinari",
    "oldLat": 40.8286,
    "oldLng": 14.24885,
    "lat": 40.8286,
    "lng": 14.24885,
    "distKm": 0,
    "osm": "Transatlantico, Via Luculliana, Pizzofalcone, San Ferdinando, Municipalità 1, Napoli, Campania, 80132, Italia"
  },
  {
    "lineIndex": 108,
    "name": "Aria",
    "area": "Centro",
    "oldLat": 40.847,
    "oldLng": 14.251,
    "lat": 40.93094,
    "lng": 14.12652,
    "distKm": 14.02,
    "osm": "Aria, Via Circumvallazione Esterna di Napoli, Glicine-Teorema, Qualiano, Napoli, Campania, 80019, Italia"
  },
  {
    "lineIndex": 109,
    "name": "Essência",
    "area": "Centro",
    "oldLat": 40.84403,
    "oldLng": 14.25245,
    "lat": 40.84403,
    "lng": 14.25245,
    "distKm": 0,
    "osm": "Essencia, 9, Via Santa Maria la Nova, Rione Carità, Porto, Municipalità 2, Napoli, Campania, 80100, Italia"
  },
  {
    "lineIndex": 110,
    "name": "George",
    "area": "Corso V. Emanuele",
    "oldLat": 40.8385,
    "oldLng": 14.233,
    "lat": 40.94,
    "lng": 14.38308,
    "distKm": 16.93,
    "osm": "Via George Sand, Acerra, Napoli, Campania, 80011, Italia"
  },
  {
    "lineIndex": 114,
    "name": "Cicciotto Marechiaro",
    "area": "Posillipo",
    "oldLat": 40.79572,
    "oldLng": 14.19261,
    "lat": 40.79625,
    "lng": 14.19282,
    "distKm": 0.06,
    "osm": "Cicciotto Pizzerie, Via Marechiaro, Marechiaro, Posillipo, Municipalità 1, Coroglio, Napoli, Campania, 80123, Italia"
  },
  {
    "lineIndex": 115,
    "name": "Palazzo Petrucci",
    "area": "Mergellina",
    "oldLat": 40.82146,
    "oldLng": 14.21482,
    "lat": 40.82146,
    "lng": 14.21482,
    "distKm": 0,
    "osm": "Ristorante Palazzo Petrucci, 16, Via Posillipo, Mergellina, Posillipo, Municipalità 1, Napoli, Campania, 80123, Italia"
  },
  {
    "lineIndex": 123,
    "name": "Diego",
    "area": "Chiaia",
    "oldLat": 40.83602,
    "oldLng": 14.23448,
    "lat": 40.83602,
    "lng": 14.23448,
    "distKm": 0,
    "osm": "Diego, Piazzetta Ascensione a Chiaia, Chiaia, Municipalità 1, Napoli, Campania, 80121, Italia"
  },
  {
    "lineIndex": 126,
    "name": "Donna Romita",
    "area": "Centro Storico",
    "oldLat": 40.84822,
    "oldLng": 14.2559,
    "lat": 40.84822,
    "lng": 14.2559,
    "distKm": 0,
    "osm": "Donna Romita, Vico Donnaromita, Porto, Municipalità 2, Napoli, Campania, 80130, Italia"
  },
  {
    "lineIndex": 127,
    "name": "Upnea",
    "area": "Centro Storico",
    "oldLat": 40.84706,
    "oldLng": 14.25444,
    "lat": 40.84706,
    "lng": 14.25444,
    "distKm": 0,
    "osm": "Upnea, 35, Via San Giovanni Maggiore Pignatelli, Rione Carità, Porto, Municipalità 2, Napoli, Campania, 80100, Italia"
  },
  {
    "lineIndex": 128,
    "name": "Signora Bettola",
    "area": "Multiple",
    "oldLat": 40.828,
    "oldLng": 14.222,
    "lat": 40.83234,
    "lng": 14.24981,
    "distKm": 2.39,
    "osm": "Signora Bettola, 27, Via Raffaele De Cesare, Pizzofalcone, San Ferdinando, Municipalità 1, Napoli, Campania, 80132, Italia"
  },
  {
    "lineIndex": 129,
    "name": "Trattoria da Nennella",
    "area": "Centro",
    "oldLat": 40.84461,
    "oldLng": 14.24977,
    "lat": 40.84461,
    "lng": 14.24977,
    "distKm": 0,
    "osm": "Trattoria da Nennella, 22, Piazza Carità, Rione Carità, San Giuseppe, Municipalità 2, Napoli, Campania, 80134, Italia"
  },
  {
    "lineIndex": 130,
    "name": "Ristorante Reginella",
    "area": "Posillipo",
    "oldLat": 40.8126,
    "oldLng": 14.20738,
    "lat": 40.8126,
    "lng": 14.20738,
    "distKm": 0,
    "osm": "Ristorante Reginella, Via Posillipo, Villanova di Posillipo, Posillipo, Municipalità 1, Napoli, Campania, 80123, Italia"
  },
  {
    "lineIndex": 131,
    "name": "Calasole",
    "area": "Posillipo",
    "oldLat": 40.8035,
    "oldLng": 14.2055,
    "lat": 40.80412,
    "lng": 14.18383,
    "distKm": 1.83,
    "osm": "Calasole, 39, Discesa Coroglio, Posillipo, Municipalità 1, Coroglio, Napoli, Campania, 80123, Italia"
  },
  {
    "lineIndex": 132,
    "name": "O'Pazz",
    "area": "Posillipo",
    "oldLat": 40.80114,
    "oldLng": 14.18257,
    "lat": 40.80114,
    "lng": 14.18257,
    "distKm": 0,
    "osm": "O'Pazz, Viale Virgilio, Posillipo, Municipalità 1, Coroglio, Napoli, Campania, 80123, Italia"
  },
  {
    "lineIndex": 133,
    "name": "Tufo",
    "area": "Posillipo",
    "oldLat": 40.81483,
    "oldLng": 14.20922,
    "lat": 40.81446,
    "lng": 14.20825,
    "distKm": 0.09,
    "osm": "Tufò - Take away, Via Posillipo, Villanova di Posillipo, Posillipo, Municipalità 1, Napoli, Campania, 80123, Italia"
  },
  {
    "lineIndex": 143,
    "name": "Taverna dell'Arte",
    "area": "Centro Storico",
    "oldLat": 40.84572,
    "oldLng": 14.25621,
    "lat": 40.84572,
    "lng": 14.25621,
    "distKm": 0,
    "osm": "Taverna dell'arte, 1a, Rampe San Giovanni Maggiore, Rione Carità, Porto, Municipalità 2, Napoli, Campania, 80100, Italia"
  },
  {
    "lineIndex": 144,
    "name": "Mimì alla Ferrovia",
    "area": "Stazione",
    "oldLat": 40.85341,
    "oldLng": 14.26726,
    "lat": 40.85341,
    "lng": 14.26726,
    "distKm": 0,
    "osm": "Mimi alla Ferrovia, Via Alfonso d'Aragona, Porta Capuana, Vicaria, Municipalità 4, Napoli, Campania, 80139, Italia"
  },
  {
    "lineIndex": 147,
    "name": "Vinarium",
    "area": "Chiaia",
    "oldLat": 40.83435,
    "oldLng": 14.2425,
    "lat": 40.83435,
    "lng": 14.2425,
    "distKm": 0,
    "osm": "Vinarium, Vico Santa Maria a Cappella Vecchia, Pizzofalcone, San Ferdinando, Municipalità 1, Napoli, Campania, 80121, Italia"
  },
  {
    "lineIndex": 148,
    "name": "Januarius",
    "area": "Duomo",
    "oldLat": 40.85214,
    "oldLng": 14.25895,
    "lat": 40.85214,
    "lng": 14.25895,
    "distKm": 0,
    "osm": "Januarius, 146;148, Via Duomo, Rione Forcella, San Lorenzo, Municipalità 4, Napoli, Campania, 80138, Italia"
  },
  {
    "lineIndex": 150,
    "name": "Trattoria dell'Oca",
    "area": "Chiaia",
    "oldLat": 40.83584,
    "oldLng": 14.2346,
    "lat": 40.83584,
    "lng": 14.2346,
    "distKm": 0,
    "osm": "Trattoria dell'oca, Via Giovanni Bausan, Chiaia, Municipalità 1, Napoli, Campania, 80121, Italia"
  },
  {
    "lineIndex": 151,
    "name": "Tandem Ragù",
    "area": "Centro Storico",
    "oldLat": 40.84824,
    "oldLng": 14.25633,
    "lat": 40.84824,
    "lng": 14.25633,
    "distKm": 0,
    "osm": "Tandem Ragù, 51, Via Giovanni Paladino, Porto, Municipalità 2, Napoli, Campania, 80138, Italia"
  },
  {
    "lineIndex": 152,
    "name": "Buatta",
    "area": "Vomero",
    "oldLat": 40.84587,
    "oldLng": 14.23077,
    "lat": 40.84587,
    "lng": 14.23077,
    "distKm": 0,
    "osm": "Buatta - Trattoria di Conversazione, Via Filippo Cifariello, Rione Antignano, Vomero, Municipalità 5, Napoli, Campania, 80129, Italia"
  },
  {
    "lineIndex": 160,
    "name": "Pastena",
    "area": "Centro",
    "oldLat": 40.847,
    "oldLng": 14.252,
    "lat": 40.60629,
    "lng": 14.36473,
    "distKm": 28.4,
    "osm": "Pastena, Massa Lubrense, Napoli, Campania, 80064, Italia"
  },
  {
    "lineIndex": 161,
    "name": "Friggitoria Vomero",
    "area": "Vomero",
    "oldLat": 40.84282,
    "oldLng": 14.23282,
    "lat": 40.84282,
    "lng": 14.23282,
    "distKm": 0,
    "osm": "Friggitoria Vomero, 44, Via Domenico Cimarosa, Vomero, Municipalità 5, Napoli, Campania, 80127, Italia"
  },
  {
    "lineIndex": 162,
    "name": "Friggitoria Fiorenzano",
    "area": "Pignasecca",
    "oldLat": 40.84591,
    "oldLng": 14.24801,
    "lat": 40.84591,
    "lng": 14.24801,
    "distKm": 0,
    "osm": "Friggitoria Fiorenzano, 48, Via Pignasecca, Rione Carità, Montecalvario, Municipalità 2, Napoli, Campania, 80134, Italia"
  },
  {
    "lineIndex": 163,
    "name": "Tarallificio Leopoldo",
    "area": "Multiple",
    "oldLat": 40.833,
    "oldLng": 14.23,
    "lat": 40.85976,
    "lng": 14.26279,
    "distKm": 4.06,
    "osm": "Tarallificio Leopoldo, 212, Via Foria, Borgo Sant'Antonio Abate, Vicaria, Municipalità 4, Napoli, Campania, 80139, Italia"
  },
  {
    "lineIndex": 164,
    "name": "Di Matteo",
    "area": "Via dei Tribunali",
    "oldLat": 40.85129,
    "oldLng": 14.25802,
    "lat": 40.85129,
    "lng": 14.25802,
    "distKm": 0,
    "osm": "Antica Pizzeria Di Matteo, 94, Via dei Tribunali, Rione Forcella, San Lorenzo, Municipalità 4, Napoli, Campania, 80138, Italia"
  },
  {
    "lineIndex": 171,
    "name": "Gay Odin",
    "area": "Multiple",
    "oldLat": 40.83678,
    "oldLng": 14.2348,
    "lat": 40.83678,
    "lng": 14.2348,
    "distKm": 0,
    "osm": "Gay Odin, Via Vittoria Colonna, Chiaia, Municipalità 1, Napoli, Campania, 80121, Italia"
  },
  {
    "lineIndex": 172,
    "name": "Di Costanzo",
    "area": "Centro Storico",
    "oldLat": 40.8505,
    "oldLng": 14.2585,
    "lat": 40.86815,
    "lng": 14.38281,
    "distKm": 10.64,
    "osm": "Di Costanzo, 112, Via Giuseppe Mazzini, Pollena Trocchia, Napoli, Campania, 80040, Italia"
  },
  {
    "lineIndex": 173,
    "name": "Attanasio",
    "area": "Stazione",
    "oldLat": 40.85171,
    "oldLng": 14.27065,
    "lat": 40.85171,
    "lng": 14.27065,
    "distKm": 0,
    "osm": "Attanasio, Piazza Garibaldi, Rione Vasto, Vicaria, Municipalità 4, Napoli, Campania, 80142, Italia"
  },
  {
    "lineIndex": 174,
    "name": "Poppella",
    "area": "Multiple",
    "oldLat": 40.85743,
    "oldLng": 14.25313,
    "lat": 40.85743,
    "lng": 14.25313,
    "distKm": 0,
    "osm": "Poppella, 24, Via Arena della Sanità, Rione Sanità, Stella, Municipalità 3, Napoli, Campania, 80137, Italia"
  },
  {
    "lineIndex": 175,
    "name": "Pitera",
    "area": "Chiaia",
    "oldLat": 40.83574,
    "oldLng": 14.2361,
    "lat": 40.83574,
    "lng": 14.2361,
    "distKm": 0,
    "osm": "Piterà, 30/31, Via San Pasquale a Chiaia, Chiaia, Municipalità 1, Napoli, Campania, 80121, Italia"
  },
  {
    "lineIndex": 176,
    "name": "Ciro a Mergellina",
    "area": "Mergellina",
    "oldLat": 40.82538,
    "oldLng": 14.22004,
    "lat": 40.82538,
    "lng": 14.22004,
    "distKm": 0,
    "osm": "Ciro a Mergellina, Via Mergellina, Mergellina, Chiaia, Municipalità 1, Napoli, Campania, 80122, Italia"
  },
  {
    "lineIndex": 177,
    "name": "Casa Infante",
    "area": "Multiple",
    "oldLat": 40.84404,
    "oldLng": 14.23224,
    "lat": 40.84784,
    "lng": 14.22813,
    "distKm": 0.55,
    "osm": "Casa Infante, Piazza degli Artisti, Rione Antignano, Vomero, Municipalità 5, Napoli, Campania, 80128, Italia"
  },
  {
    "lineIndex": 178,
    "name": "Mennella",
    "area": "Multiple",
    "oldLat": 40.836,
    "oldLng": 14.24,
    "lat": 40.83624,
    "lng": 14.23681,
    "distKm": 0.27,
    "osm": "Mennella, Via Giosuè Carducci, Chiaia, Municipalità 1, Napoli, Campania, 80121, Italia"
  },
  {
    "lineIndex": 185,
    "name": "Pastena",
    "area": "Centro",
    "oldLat": 40.847,
    "oldLng": 14.252,
    "lat": 40.60629,
    "lng": 14.36473,
    "distKm": 28.4,
    "osm": "Pastena, Massa Lubrense, Napoli, Campania, 80064, Italia"
  },
  {
    "lineIndex": 187,
    "name": "Con Mollica o Senza",
    "area": "Centro",
    "oldLat": 40.84555,
    "oldLng": 14.24807,
    "lat": 40.84555,
    "lng": 14.24807,
    "distKm": 0,
    "osm": "Donato - con mollica o senza, 29, Via Pignasecca, Rione Carità, Montecalvario, Municipalità 2, Napoli, Campania, 80134, Italia"
  },
  {
    "lineIndex": 188,
    "name": "Bowl Napoli",
    "area": "Multiple",
    "oldLat": 40.84669,
    "oldLng": 14.25969,
    "lat": 40.84669,
    "lng": 14.25969,
    "distKm": 0,
    "osm": "Bowl, 8, Via Salvatore De Renzi, Pendino, Municipalità 2, Napoli, Campania, 80138, Italia"
  },
  {
    "lineIndex": 189,
    "name": "Cibi Cotti",
    "area": "Mergellina",
    "oldLat": 40.83123,
    "oldLng": 14.22379,
    "lat": 40.83123,
    "lng": 14.22379,
    "distKm": 0,
    "osm": "Nonna Anna - Cibi cotti, 24, Via Ferdinando Galiani, Mergellina, Chiaia, Municipalità 1, Napoli, Campania, 80122, Italia"
  },
  {
    "lineIndex": 190,
    "name": "Vinarium",
    "area": "Chiaia",
    "oldLat": 40.83435,
    "oldLng": 14.2425,
    "lat": 40.83435,
    "lng": 14.2425,
    "distKm": 0,
    "osm": "Vinarium, Vico Santa Maria a Cappella Vecchia, Pizzofalcone, San Ferdinando, Municipalità 1, Napoli, Campania, 80121, Italia"
  },
  {
    "lineIndex": 191,
    "name": "Cantina della Sapienza",
    "area": "Centro Storico",
    "oldLat": 40.85169,
    "oldLng": 14.2538,
    "lat": 40.85169,
    "lng": 14.2538,
    "distKm": 0,
    "osm": "La cantina di via Sapienza, 40, Via della Sapienza, San Lorenzo, Municipalità 4, Napoli, Campania, 80130, Italia"
  },
  {
    "lineIndex": 195,
    "name": "Cu.Qu.",
    "area": "Quartieri Spagnoli",
    "oldLat": 40.842,
    "oldLng": 14.2475,
    "lat": 40.83819,
    "lng": 14.24775,
    "distKm": 0.42,
    "osm": "CU.QU. / cucinadiquartiere, 12-13, Vicoletto Berio, San Ferdinando, Municipalità 1, Napoli, Campania, 80132, Italia"
  },
  {
    "lineIndex": 205,
    "name": "La Tradizione",
    "area": "Vomero",
    "oldLat": 40.8448,
    "oldLng": 14.2278,
    "lat": 40.81914,
    "lng": 14.34906,
    "distKm": 10.59,
    "osm": "La Tradizione, Via Giuseppe Verdi, Portici, Napoli, Campania, 80055, Italia"
  },
  {
    "lineIndex": 216,
    "name": "Zero",
    "area": "Centro",
    "oldLat": 40.83757,
    "oldLng": 14.24708,
    "lat": 40.83863,
    "lng": 14.25033,
    "distKm": 0.3,
    "osm": "Zero - Healthy Bar Speciality Coffee, 8, Via Giuseppe Verdi, San Ferdinando, Municipalità 1, Napoli, Campania, 80138, Italia"
  },
  {
    "lineIndex": 217,
    "name": "Bowl Napoli",
    "area": "Multiple",
    "oldLat": 40.84669,
    "oldLng": 14.25969,
    "lat": 40.84669,
    "lng": 14.25969,
    "distKm": 0,
    "osm": "Bowl, 8, Via Salvatore De Renzi, Pendino, Municipalità 2, Napoli, Campania, 80138, Italia"
  },
  {
    "lineIndex": 218,
    "name": "Poke House",
    "area": "Multiple",
    "oldLat": 40.84,
    "oldLng": 14.247,
    "lat": 40.74763,
    "lng": 14.47075,
    "distKm": 21.45,
    "osm": "Poke House, Via Plinio, Croce Pasella, Penniniello, Rovigliano, Torre Annunziata, Napoli, Campania, 80058, Italia"
  },
  {
    "lineIndex": 219,
    "name": "O'Grin",
    "area": "Centro",
    "oldLat": 40.84669,
    "oldLng": 14.25596,
    "lat": 40.84669,
    "lng": 14.25596,
    "distKm": 0,
    "osm": "'O Grin, 83, Via Mezzocannone, Rione Carità, Porto, Municipalità 2, Napoli, Campania, 80130, Italia"
  },
  {
    "lineIndex": 221,
    "name": "Un Sorriso Integrale",
    "area": "Centro",
    "oldLat": 40.8493,
    "oldLng": 14.252,
    "lat": 40.84976,
    "lng": 14.25262,
    "distKm": 0.07,
    "osm": "Un sorriso integrale, Via San Pietro a Maiella, San Giuseppe, Municipalità 4, Napoli, Campania, 80130, Italia"
  },
  {
    "lineIndex": 228,
    "name": "Birdy's",
    "area": "Chiaia",
    "oldLat": 40.83529,
    "oldLng": 14.23893,
    "lat": 40.83529,
    "lng": 14.23893,
    "distKm": 0,
    "osm": "Birdy, 14 a/b, Vico Belledonne a Chiaia, San Ferdinando, Municipalità 1, Napoli, Campania, 80121, Italia"
  },
  {
    "lineIndex": 229,
    "name": "Zero",
    "area": "Near Teatro San Carlo",
    "oldLat": 40.83757,
    "oldLng": 14.24708,
    "lat": 40.83863,
    "lng": 14.25033,
    "distKm": 0.3,
    "osm": "Zero - Healthy Bar Speciality Coffee, 8, Via Giuseppe Verdi, San Ferdinando, Municipalità 1, Napoli, Campania, 80138, Italia"
  },
  {
    "lineIndex": 230,
    "name": "It's",
    "area": "Centro",
    "oldLat": 40.847,
    "oldLng": 14.252,
    "lat": 40.84454,
    "lng": 14.25132,
    "distKm": 0.28,
    "osm": "it‘s, Via del Chiostro, Rione Carità, San Giuseppe, Municipalità 2, Napoli, Campania, 80134, Italia"
  },
  {
    "lineIndex": 234,
    "name": "The Florist",
    "area": "Via Foria",
    "oldLat": 40.8555,
    "oldLng": 14.2625,
    "lat": 40.8808,
    "lng": 14.14427,
    "distKm": 10.33,
    "osm": "The Florist, Fioreria Fruttaldo, Via Giorgio de Falco, Casalanno, Quarto, Napoli, Campania, 80010, Italia"
  },
  {
    "lineIndex": 235,
    "name": "O'Grin",
    "area": "Centro",
    "oldLat": 40.84669,
    "oldLng": 14.25596,
    "lat": 40.84669,
    "lng": 14.25596,
    "distKm": 0,
    "osm": "'O Grin, 83, Via Mezzocannone, Rione Carità, Porto, Municipalità 2, Napoli, Campania, 80130, Italia"
  },
  {
    "lineIndex": 236,
    "name": "Cu.Qu",
    "area": "Quartieri Spagnoli",
    "oldLat": 40.842,
    "oldLng": 14.2475,
    "lat": 40.83819,
    "lng": 14.24775,
    "distKm": 0.42,
    "osm": "CU.QU. / cucinadiquartiere, 12-13, Vicoletto Berio, San Ferdinando, Municipalità 1, Napoli, Campania, 80132, Italia"
  },
  {
    "lineIndex": 247,
    "name": "L'Antiquario",
    "area": "Chiaia",
    "oldLat": 40.83296,
    "oldLng": 14.24224,
    "lat": 40.83296,
    "lng": 14.24224,
    "distKm": 0,
    "osm": "L'Antiquario, 2, Via Vannella Gaetani, Pizzofalcone, San Ferdinando, Municipalità 1, Napoli, Campania, 80121, Italia"
  },
  {
    "lineIndex": 250,
    "name": "Archivio Storico",
    "area": "Vomero",
    "oldLat": 40.84426,
    "oldLng": 14.23461,
    "lat": 40.84426,
    "lng": 14.23461,
    "distKm": 0,
    "osm": "Archivio Storico, Via Alessandro Scarlatti, Vomero, Municipalità 5, Napoli, Campania, 80129, Italia"
  },
  {
    "lineIndex": 252,
    "name": "Moby Dick",
    "area": "Centro",
    "oldLat": 40.8478,
    "oldLng": 14.253,
    "lat": 40.81787,
    "lng": 14.07109,
    "distKm": 15.66,
    "osm": "Moby Dick di Dario Travaglio, Via Lucullo, Baia, Fusaro, Bacoli, Napoli, Campania, 80070, Italia"
  },
  {
    "lineIndex": 253,
    "name": "Flanagan's",
    "area": "Multiple",
    "oldLat": 40.83387,
    "oldLng": 14.24034,
    "lat": 40.83387,
    "lng": 14.24034,
    "distKm": 0,
    "osm": "Flanagan's, 13, Via Carlo Poerio, Pizzofalcone, San Ferdinando, Municipalità 1, Napoli, Campania, 80121, Italia"
  },
  {
    "lineIndex": 254,
    "name": "Fonoteca",
    "area": "Vomero",
    "oldLat": 40.84304,
    "oldLng": 14.23387,
    "lat": 40.84304,
    "lng": 14.23387,
    "distKm": 0,
    "osm": "Fonoteca, 31, Via Raffaele Morghen, Rione Antignano, Vomero, Municipalità 5, Napoli, Campania, 80127, Italia"
  },
  {
    "lineIndex": 255,
    "name": "Ex Salumeria",
    "area": "Centro",
    "oldLat": 40.84573,
    "oldLng": 14.25481,
    "lat": 40.84573,
    "lng": 14.25481,
    "distKm": 0,
    "osm": "Ex Salumeria, Via Candelora, Rione Carità, Porto, Municipalità 2, Napoli, Campania, 80100, Italia"
  },
  {
    "lineIndex": 264,
    "name": "Jus",
    "area": "Chiaia",
    "oldLat": 40.83462,
    "oldLng": 14.23477,
    "lat": 40.83462,
    "lng": 14.23477,
    "distKm": 0,
    "osm": "JUS Vinoteca Naturale, 60, Via Giovanni Bausan, Chiaia, Municipalità 1, Napoli, Campania, 80121, Italia"
  },
  {
    "lineIndex": 265,
    "name": "Indovino",
    "area": "Montesanto",
    "oldLat": 40.84829,
    "oldLng": 14.24834,
    "lat": 40.84829,
    "lng": 14.24834,
    "distKm": 0,
    "osm": "Indovino, 9, Vico Latilla, Rione Montesanto, San Giuseppe, Municipalità 2, Napoli, Campania, 80135, Italia"
  },
  {
    "lineIndex": 267,
    "name": "Enoteca Belledonne",
    "area": "Chiaia",
    "oldLat": 40.83513,
    "oldLng": 14.23943,
    "lat": 40.83513,
    "lng": 14.23943,
    "distKm": 0,
    "osm": "Enoteca Belledonne, 18, Vico Belledonne a Chiaia, San Ferdinando, Municipalità 1, Napoli, Campania, 80121, Italia"
  },
  {
    "lineIndex": 270,
    "name": "Vinarium",
    "area": "Chiaia",
    "oldLat": 40.83435,
    "oldLng": 14.2425,
    "lat": 40.83435,
    "lng": 14.2425,
    "distKm": 0,
    "osm": "Vinarium, Vico Santa Maria a Cappella Vecchia, Pizzofalcone, San Ferdinando, Municipalità 1, Napoli, Campania, 80121, Italia"
  },
  {
    "lineIndex": 271,
    "name": "Puteca",
    "area": "Via Chiaia",
    "oldLat": 40.8375,
    "oldLng": 14.247,
    "lat": 40.85115,
    "lng": 14.25765,
    "distKm": 1.76,
    "osm": "'A Puteca d' 'a Pizza, 86, Via dei Tribunali, Rione Forcella, San Lorenzo, Municipalità 4, Napoli, Campania, 80130, Italia"
  },
  {
    "lineIndex": 279,
    "name": "Mosto",
    "area": "Multiple",
    "oldLat": 40.8442,
    "oldLng": 14.23042,
    "lat": 40.8442,
    "lng": 14.23042,
    "distKm": 0,
    "osm": "Mosto, 59, Via Enrico Alvino, Rione Antignano, Vomero, Municipalità 5, Napoli, Campania, 80129, Italia"
  },
  {
    "lineIndex": 280,
    "name": "OAK",
    "area": "Centro",
    "oldLat": 40.84714,
    "oldLng": 14.25036,
    "lat": 40.84714,
    "lng": 14.25036,
    "distKm": 0,
    "osm": "Oak, Vico Secondo Cisterna dell'Olio, Rione Montesanto, San Giuseppe, Municipalità 2, Napoli, Campania, 80100, Italia"
  },
  {
    "lineIndex": 281,
    "name": "Carafa della Spina",
    "area": "Duomo",
    "oldLat": 40.85313,
    "oldLng": 14.25822,
    "lat": 40.85313,
    "lng": 14.25822,
    "distKm": 0,
    "osm": "Carafa della Spina, Via San Giuseppe dei Ruffi, Rione Forcella, San Lorenzo, Municipalità 4, Napoli, Campania, 80138, Italia"
  },
  {
    "lineIndex": 282,
    "name": "Hoppy Ending",
    "area": "Vomero",
    "oldLat": 40.84247,
    "oldLng": 14.22197,
    "lat": 40.84247,
    "lng": 14.22197,
    "distKm": 0,
    "osm": "Hoppy Ending, 30, Via Santa Maria della Libera, Vomero, Municipalità 5, Napoli, Campania, 80127, Italia"
  },
  {
    "lineIndex": 285,
    "name": "Biergarten",
    "area": "Vomero",
    "oldLat": 40.84169,
    "oldLng": 14.22727,
    "lat": 40.84169,
    "lng": 14.22727,
    "distKm": 0,
    "osm": "Biergarten, 10 A, Via Mattia Preti, Vomero, Municipalità 5, Napoli, Campania, 80127, Italia"
  },
  {
    "lineIndex": 288,
    "name": "Beer Garden Coroglio",
    "area": "Bagnoli",
    "oldLat": 40.80072,
    "oldLng": 14.177,
    "lat": 40.80072,
    "lng": 14.177,
    "distKm": 0,
    "osm": "Beer Garden, Discesa Coroglio, Posillipo, Municipalità 1, Coroglio, Napoli, Campania, 80124, Italia"
  },
  {
    "lineIndex": 297,
    "name": "Chandelier",
    "area": "Chiaia",
    "oldLat": 40.83502,
    "oldLng": 14.24044,
    "lat": 40.83502,
    "lng": 14.24044,
    "distKm": 0,
    "osm": "Chandelier Café, Vico Belledonne a Chiaia, San Ferdinando, Municipalità 1, Napoli, Campania, 80121, Italia"
  },
  {
    "lineIndex": 301,
    "name": "Ennò",
    "area": "Centro",
    "oldLat": 40.8485,
    "oldLng": 14.254,
    "lat": 40.85078,
    "lng": 14.25074,
    "distKm": 0.37,
    "osm": "Enno, 43, Via Vincenzo Bellini, San Lorenzo, Municipalità 4, Napoli, Campania, 80135, Italia"
  },
  {
    "lineIndex": 303,
    "name": "Barrio Botanico",
    "area": "Vomero",
    "oldLat": 40.844,
    "oldLng": 14.229,
    "lat": 40.84093,
    "lng": 14.25272,
    "distKm": 2.02,
    "osm": "Barrio Botanico, Via Medina, Rione Carità, Porto, Municipalità 2, Napoli, Campania, 80133, Italia"
  },
  {
    "lineIndex": 304,
    "name": "Bar del Chiostro",
    "area": "Vomero",
    "oldLat": 40.844,
    "oldLng": 14.229,
    "lat": 40.84752,
    "lng": 14.25247,
    "distKm": 2.01,
    "osm": "Bar del chiostro, Via Benedetto Croce, San Giuseppe, Municipalità 2, Napoli, Campania, 80100, Italia"
  },
  {
    "lineIndex": 311,
    "name": "Zero",
    "area": "Near Teatro San Carlo",
    "oldLat": 40.83757,
    "oldLng": 14.24708,
    "lat": 40.83863,
    "lng": 14.25033,
    "distKm": 0.3,
    "osm": "Zero - Healthy Bar Speciality Coffee, 8, Via Giuseppe Verdi, San Ferdinando, Municipalità 1, Napoli, Campania, 80138, Italia"
  },
  {
    "lineIndex": 314,
    "name": "It's",
    "area": "Chiaia",
    "oldLat": 40.8358,
    "oldLng": 14.2452,
    "lat": 40.8338,
    "lng": 14.24035,
    "distKm": 0.46,
    "osm": "It's sushibar, Vico Satriano, San Ferdinando, Municipalità 1, Napoli, Campania, 80121, Italia"
  },
  {
    "lineIndex": 315,
    "name": "Sansone",
    "area": "Corso V. Emanuele",
    "oldLat": 40.84,
    "oldLng": 14.235,
    "lat": 40.90129,
    "lng": 14.22334,
    "distKm": 6.89,
    "osm": "Via Luigi Renato Sansone, Municipalità 8, Masseria Epitaffio, Mugnano di Napoli, Napoli, Campania, 80018, Italia"
  },
  {
    "lineIndex": 317,
    "name": "Palazzo Venezia",
    "area": "Centro",
    "oldLat": 40.84809,
    "oldLng": 14.25381,
    "lat": 40.84809,
    "lng": 14.25381,
    "distKm": 0,
    "osm": "Palazzo Venezia, Via Benedetto Croce, San Giuseppe, Municipalità 2, Napoli, Campania, 80130, Italia"
  },
  {
    "lineIndex": 318,
    "name": "Gran Caffè Gambrinus",
    "area": "Centro",
    "oldLat": 40.83674,
    "oldLng": 14.24847,
    "lat": 40.83674,
    "lng": 14.24847,
    "distKm": 0,
    "osm": "Gran Caffè Gambrinus, 1/2, Via Chiaia, Pizzofalcone, San Ferdinando, Municipalità 1, Napoli, Campania, 80121, Italia"
  },
  {
    "lineIndex": 329,
    "name": "Via San Gregorio Armeno",
    "area": "Centro Storico",
    "oldLat": 40.8505,
    "oldLng": 14.2585,
    "lat": 40.85041,
    "lng": 14.25762,
    "distKm": 0.08,
    "osm": "Via San Gregorio Armeno, Rione Forcella, San Lorenzo, Municipalità 4, Napoli, Campania, 80138, Italia"
  },
  {
    "lineIndex": 330,
    "name": "E. Marinella",
    "area": "Riviera di Chiaia",
    "oldLat": 40.8296,
    "oldLng": 14.227,
    "lat": 40.63496,
    "lng": 14.39004,
    "distKm": 25.64,
    "osm": "Piazzetta Marinella, Rione Cappuccini, Maiano, Sant'Agnello, Napoli, Campania, Italia"
  },
  {
    "lineIndex": 332,
    "name": "Ferrigno",
    "area": "San Gregorio Armeno",
    "oldLat": 40.8503,
    "oldLng": 14.2587,
    "lat": 40.88614,
    "lng": 14.2628,
    "distKm": 4,
    "osm": "PLOOM Tabaccheria Ferrigno Ernesto, 157, Cupa Capodichino, Secondigliano, Municipalità 7, Napoli, Campania, 80144, Italia"
  },
  {
    "lineIndex": 335,
    "name": "Mario Talarico",
    "area": "Via Toledo",
    "oldLat": 40.84208,
    "oldLng": 14.24865,
    "lat": 40.84208,
    "lng": 14.24865,
    "distKm": 0,
    "osm": "Mario Talarico, 329, Via Toledo, Rione Carità, Montecalvario, Municipalità 2, Napoli, Campania, 80134, Italia"
  },
  {
    "lineIndex": 336,
    "name": "Tramontano",
    "area": "Via Chiaia",
    "oldLat": 40.83546,
    "oldLng": 14.2426,
    "lat": 40.83546,
    "lng": 14.2426,
    "distKm": 0,
    "osm": "Tramontano, Via Chiaia, Pizzofalcone, San Ferdinando, Municipalità 1, Napoli, Campania, 80132, Italia"
  },
  {
    "lineIndex": 345,
    "name": "MANN — Museo Archeologico",
    "area": "Centro",
    "oldLat": 40.85361,
    "oldLng": 14.25115,
    "lat": 40.85361,
    "lng": 14.25115,
    "distKm": 0,
    "osm": "Museo archeologico nazionale di Napoli, 19, Piazza Museo Nazionale, Rione Sanità, Stella, Municipalità 3, Napoli, Campania, 80135, Italia"
  },
  {
    "lineIndex": 346,
    "name": "Museo di Capodimonte",
    "area": "Capodimonte",
    "oldLat": 40.8677,
    "oldLng": 14.2506,
    "lat": 40.8677,
    "lng": 14.2506,
    "distKm": 0,
    "osm": "Museo di Capodimonte, 2, Via Lucio Amelio, Capodimonte, Stella, Municipalità 3, Napoli, Campania, 80131, Italia"
  },
  {
    "lineIndex": 347,
    "name": "Certosa e Museo di San Martino",
    "area": "Vomero",
    "oldLat": 40.8439,
    "oldLng": 14.24072,
    "lat": 40.8439,
    "lng": 14.24072,
    "distKm": 0,
    "osm": "Certosa e Museo di San Martino, Largo San Martino, Vomero, Municipalità 5, Napoli, Campania, 80129, Italia"
  },
  {
    "lineIndex": 348,
    "name": "Cappella Sansevero",
    "area": "Centro Storico",
    "oldLat": 40.8493,
    "oldLng": 14.25493,
    "lat": 40.8493,
    "lng": 14.25493,
    "distKm": 0,
    "osm": "Cappella Sansevero, 19;21, Via Francesco de Sanctis, Porto, Municipalità 2, Napoli, Campania, 80134, Italia"
  },
  {
    "lineIndex": 349,
    "name": "Palazzo Reale",
    "area": "Piazza Plebiscito",
    "oldLat": 40.83648,
    "oldLng": 14.25032,
    "lat": 40.83648,
    "lng": 14.25032,
    "distKm": 0,
    "osm": "Palazzo Reale, Piazza del Plebiscito, Pizzofalcone, San Ferdinando, Municipalità 1, Napoli, Campania, 80132, Italia"
  },
  {
    "lineIndex": 350,
    "name": "Madre",
    "area": "Centro",
    "oldLat": 40.85512,
    "oldLng": 14.25859,
    "lat": 40.85512,
    "lng": 14.25859,
    "distKm": 0,
    "osm": "Museo Madre, 79, Via Luigi Settembrini, Rione Forcella, San Lorenzo, Municipalità 4, Napoli, Campania, 80138, Italia"
  },
  {
    "lineIndex": 351,
    "name": "Gallerie d'Italia",
    "area": "Via Toledo",
    "oldLat": 40.84042,
    "oldLng": 14.24881,
    "lat": 40.84042,
    "lng": 14.24881,
    "distKm": 0,
    "osm": "Gallerie d'Italia, 179;180;181;182;183;184;185;186;187, Via Toledo, Rione Carità, Montecalvario, Municipalità 2, Napoli, Campania, 80132, Italia"
  },
  {
    "lineIndex": 352,
    "name": "Cimitero delle Fontanelle",
    "area": "Sanità",
    "oldLat": 40.85803,
    "oldLng": 14.23901,
    "lat": 40.85803,
    "lng": 14.23901,
    "distKm": 0,
    "osm": "Cimitero delle Fontanelle, 80, Avvocata, Municipalità 2, Napoli, Campania, 80136, Italia"
  },
  {
    "lineIndex": 353,
    "name": "Catacombe di San Gennaro",
    "area": "Sanità",
    "oldLat": 40.86378,
    "oldLng": 14.24706,
    "lat": 40.86378,
    "lng": 14.24706,
    "distKm": 0,
    "osm": "Catacombe di San Gennaro, Penninata S. Gennaro dei Poveri, Capodimonte, Stella, Municipalità 3, Napoli, Campania, 80136, Italia"
  },
  {
    "lineIndex": 354,
    "name": "Napoli Sotterranea",
    "area": "Centro Storico",
    "oldLat": 40.85108,
    "oldLng": 14.25685,
    "lat": 40.85108,
    "lng": 14.25685,
    "distKm": 0,
    "osm": "Napoli Sotterranea, 69, Vicoletto I San Paolo, Rione Forcella, San Lorenzo, Municipalità 4, Napoli, Campania, 80138, Italia"
  },
  {
    "lineIndex": 362,
    "name": "Sorrento",
    "area": "Sorrentine Peninsula",
    "oldLat": 40.62491,
    "oldLng": 14.37484,
    "lat": 40.62491,
    "lng": 14.37484,
    "distKm": 0,
    "osm": "Sorrento, Napoli, Campania, 80067, Italia"
  },
  {
    "lineIndex": 363,
    "name": "Amalfi Coast",
    "area": "Amalfi / Positano",
    "oldLat": 40.634,
    "oldLng": 14.6027,
    "lat": 40.63985,
    "lng": 14.55243,
    "distKm": 4.29,
    "osm": "Cartotrekking Escursioni Amalfi Coast, 5, via Case Amatruda, Campora, Bomerano, Agerola, Napoli, Campania, 80051, Italia"
  },
  {
    "lineIndex": 364,
    "name": "Capri",
    "area": "Bay island",
    "oldLat": 40.54884,
    "oldLng": 14.22837,
    "lat": 40.54884,
    "lng": 14.22837,
    "distKm": 0,
    "osm": "Capri, Anacapri, Napoli, Campania, Italia"
  },
  {
    "lineIndex": 365,
    "name": "Ischia",
    "area": "Bay island",
    "oldLat": 40.73421,
    "oldLng": 13.94712,
    "lat": 40.73421,
    "lng": 13.94712,
    "distKm": 0,
    "osm": "Ischia, Napoli, Campania, Italia"
  },
  {
    "lineIndex": 366,
    "name": "Procida",
    "area": "Bay island",
    "oldLat": 40.765,
    "oldLng": 14.02391,
    "lat": 40.765,
    "lng": 14.02391,
    "distKm": 0,
    "osm": "Procida, Napoli, Campania, 80079, Italia"
  },
  {
    "lineIndex": 369,
    "name": "Gaeta",
    "area": "South Lazio",
    "oldLat": 41.2134,
    "oldLng": 13.5713,
    "lat": 40.87092,
    "lng": 14.2738,
    "distKm": 70.15,
    "osm": "Via Francesco Gaeta, Rione Amicizia, San Carlo all'Arena, Municipalità 3, Napoli, Campania, 80141, Italia"
  },
  {
    "lineIndex": 378,
    "name": "Terme di Agnano",
    "area": "Agnano",
    "oldLat": 40.82609,
    "oldLng": 14.17102,
    "lat": 40.82577,
    "lng": 14.16945,
    "distKm": 0.14,
    "osm": "Terme Romane di Agnano, Via Agnano agli Astroni, Agnano, Bagnoli, Municipalità 10, Napoli, Campania, 80124, Italia"
  },
  {
    "lineIndex": 379,
    "name": "Stufe di Nerone",
    "area": "Bacoli",
    "oldLat": 40.813,
    "oldLng": 14.078,
    "lat": 40.82778,
    "lng": 14.0764,
    "distKm": 1.65,
    "osm": "Via Stufe Di Nerone, Baia, Scalandrone, Bacoli, Napoli, Campania, 80072, Italia"
  },
  {
    "lineIndex": 380,
    "name": "Giardini Poseidon Terme",
    "area": "Ischia",
    "oldLat": 40.728,
    "oldLng": 13.88,
    "lat": 40.71676,
    "lng": 13.86182,
    "distKm": 1.98,
    "osm": "Giardini Poseidon Terme, Via Giovanni Mazzella, Cuotto, Forio, Napoli, Campania, 80075, Italia"
  },
  {
    "lineIndex": 381,
    "name": "Negombo",
    "area": "Ischia",
    "oldLat": 40.75674,
    "oldLng": 13.87887,
    "lat": 40.75674,
    "lng": 13.87887,
    "distKm": 0,
    "osm": "Negombo, SP515, Forio, Napoli, Campania, 80075, Italia"
  },
  {
    "lineIndex": 391,
    "name": "Bosco di Capodimonte",
    "area": "Capodimonte",
    "oldLat": 40.87425,
    "oldLng": 14.25511,
    "lat": 40.87425,
    "lng": 14.25511,
    "distKm": 0,
    "osm": "Real Bosco di Capodimonte, Napoli, Campania, Italia"
  },
  {
    "lineIndex": 392,
    "name": "Parco Virgiliano",
    "area": "Posillipo",
    "oldLat": 40.80388,
    "oldLng": 14.18653,
    "lat": 40.80388,
    "lng": 14.18653,
    "distKm": 0,
    "osm": "Manzoni - Parco Virgiliano, Via Alessandro Manzoni, Posillipo, Municipalità 1, Coroglio, Napoli, Campania, 80123, Italia"
  },
  {
    "lineIndex": 393,
    "name": "Villa Comunale",
    "area": "Chiaia",
    "oldLat": 40.8327,
    "oldLng": 14.2368,
    "lat": 40.8327,
    "lng": 14.2368,
    "distKm": 0,
    "osm": "Villa Comunale, Municipalità 1, Napoli, Campania, Italia"
  },
  {
    "lineIndex": 394,
    "name": "Villa Floridiana",
    "area": "Vomero",
    "oldLat": 40.83948,
    "oldLng": 14.23024,
    "lat": 40.83948,
    "lng": 14.23024,
    "distKm": 0,
    "osm": "Villa Floridiana, Via Aniello Falcone, Vomero, Municipalità 5, Napoli, Campania, 80127, Italia"
  },
  {
    "lineIndex": 395,
    "name": "Orto Botanico",
    "area": "Via Foria",
    "oldLat": 40.859,
    "oldLng": 14.264,
    "lat": 40.86086,
    "lng": 14.26379,
    "distKm": 0.21,
    "osm": "Via Foria (orto botanico), Via Foria, Rione Sanità, San Carlo all'Arena, Municipalità 3, Napoli, Campania, 80137, Italia"
  },
  {
    "lineIndex": 396,
    "name": "Parco del Poggio",
    "area": "Colli Aminei",
    "oldLat": 40.8668,
    "oldLng": 14.23946,
    "lat": 40.8668,
    "lng": 14.23946,
    "distKm": 0,
    "osm": "Parco del Poggio, Stella, Municipalità 3, Paratina, Napoli, Campania, Italia"
  },
  {
    "lineIndex": 398,
    "name": "Parco Mascagna",
    "area": "Vomero",
    "oldLat": 40.84936,
    "oldLng": 14.22821,
    "lat": 40.84936,
    "lng": 14.22821,
    "distKm": 0,
    "osm": "Parco Mascagna, Arenella, Municipalità 5, Napoli, Campania, Italia"
  },
  {
    "lineIndex": 399,
    "name": "Cratere degli Astroni",
    "area": "Agnano",
    "oldLat": 40.84508,
    "oldLng": 14.14904,
    "lat": 40.84508,
    "lng": 14.14904,
    "distKm": 0,
    "osm": "Riserva Naturale Cratere degli Astroni, Cigliano, Pozzuoli, Napoli, Campania, Italia"
  },
  {
    "lineIndex": 408,
    "name": "Porta Nolana",
    "area": "Garibaldi",
    "oldLat": 40.84921,
    "oldLng": 14.2687,
    "lat": 40.84895,
    "lng": 14.2687,
    "distKm": 0.03,
    "osm": "Porta Nolana, Corso Giuseppe Garibaldi, Porta Nolana, Mercato, Municipalità 2, Napoli, Campania, 80142, Italia"
  },
  {
    "lineIndex": 409,
    "name": "Mercato di Poggioreale",
    "area": "Poggioreale",
    "oldLat": 40.86254,
    "oldLng": 14.289,
    "lat": 40.86254,
    "lng": 14.289,
    "distKm": 0,
    "osm": "Mercato Caramanico \"Poggioreale\", 43, Via Marino di Caramanico, Rione Sant'Alfonso, Poggioreale, Municipalità 4, Napoli, Campania, 80143, Italia"
  },
  {
    "lineIndex": 410,
    "name": "Antignano",
    "area": "Vomero",
    "oldLat": 40.84743,
    "oldLng": 14.22956,
    "lat": 40.84743,
    "lng": 14.22956,
    "distKm": 0,
    "osm": "Basilica Pontificia di San Gennaro ad Antignano, Via San Gennaro ad Antignano, Rione Antignano, Vomero, Municipalità 5, Napoli, Campania, 80128, Italia"
  },
  {
    "lineIndex": 412,
    "name": "Mercato di Fuorigrotta",
    "area": "Fuorigrotta",
    "oldLat": 40.83185,
    "oldLng": 14.2031,
    "lat": 40.83185,
    "lng": 14.2031,
    "distKm": 0,
    "osm": "Mercato Rionale di Fuorigrotta, Via Nicola Romeo, Fuorigrotta, Municipalità 10, Napoli, Campania, 80125, Italia"
  },
  {
    "lineIndex": 414,
    "name": "Sant'Antonio Abate",
    "area": "Centro",
    "oldLat": 40.854,
    "oldLng": 14.264,
    "lat": 40.72371,
    "lng": 14.54654,
    "distKm": 27.85,
    "osm": "Sant'Antonio Abate, Napoli, Campania, 80057, Italia"
  },
  {
    "lineIndex": 422,
    "name": "Mappatella Beach",
    "area": "Lungomare",
    "oldLat": 40.829,
    "oldLng": 14.223,
    "lat": 40.83162,
    "lng": 14.23129,
    "distKm": 0.76,
    "osm": "Lido Mappatella, Chiaia, Municipalità 1, Napoli, Campania, Italia"
  },
  {
    "lineIndex": 423,
    "name": "Bagno Elena",
    "area": "Posillipo",
    "oldLat": 40.809,
    "oldLng": 14.214,
    "lat": 40.82185,
    "lng": 14.2159,
    "distKm": 1.44,
    "osm": "Bagno Elena, Via Posillipo, Mergellina, Posillipo, Municipalità 1, Napoli, Campania, 80122, Italia"
  },
  {
    "lineIndex": 424,
    "name": "Bagno Ideal",
    "area": "Posillipo",
    "oldLat": 40.8085,
    "oldLng": 14.212,
    "lat": 40.82129,
    "lng": 14.21456,
    "distKm": 1.44,
    "osm": "Bagno Ideal, Via Posillipo, Mergellina, Posillipo, Municipalità 1, Napoli, Campania, 80122, Italia"
  },
  {
    "lineIndex": 425,
    "name": "Bagno Sirena",
    "area": "Posillipo",
    "oldLat": 40.803,
    "oldLng": 14.201,
    "lat": 40.81931,
    "lng": 14.21377,
    "distKm": 2.11,
    "osm": "Bagno Sirena, Via Parco Carelli, Villanova di Posillipo, Posillipo, Municipalità 1, Napoli, Campania, 80122, Italia"
  },
  {
    "lineIndex": 426,
    "name": "Rocce Verdi",
    "area": "Posillipo",
    "oldLat": 40.8,
    "oldLng": 14.195,
    "lat": 40.79843,
    "lng": 14.1988,
    "distKm": 0.36,
    "osm": "Kayak Napoli, Discesa Rocce Verdi, Capo di Posillipo, Posillipo, Municipalità 1, Coroglio, Napoli, Campania, 80123, Italia"
  },
  {
    "lineIndex": 427,
    "name": "Lido Marechiaro",
    "area": "Posillipo",
    "oldLat": 40.795,
    "oldLng": 14.19,
    "lat": 40.79477,
    "lng": 14.19157,
    "distKm": 0.13,
    "osm": "Lido Marechiaro, Via Marechiaro, Marechiaro, Posillipo, Municipalità 1, Coroglio, Napoli, Campania, 80123, Italia"
  },
  {
    "lineIndex": 428,
    "name": "Spiaggia della Gaiola",
    "area": "Posillipo",
    "oldLat": 40.794,
    "oldLng": 14.187,
    "lat": 40.79258,
    "lng": 14.1876,
    "distKm": 0.17,
    "osm": "Spiaggia della Gaiola, Posillipo, Municipalità 1, Coroglio, Napoli, Campania, Italia"
  },
  {
    "lineIndex": 429,
    "name": "Spiaggia di Miseno",
    "area": "Bacoli",
    "oldLat": 40.787,
    "oldLng": 14.083,
    "lat": 40.78684,
    "lng": 14.0805,
    "distKm": 0.21,
    "osm": "Spiaggia di Miseno, Miseno, Bacoli, Napoli, Campania, Italia"
  },
  {
    "lineIndex": 439,
    "name": "Starbucks",
    "area": "Centro",
    "oldLat": 40.84,
    "oldLng": 14.249,
    "lat": 40.83893,
    "lng": 14.24939,
    "distKm": 0.12,
    "osm": "Starbucks, Galleria Umberto I, San Ferdinando, Municipalità 1, Napoli, Campania, 80132, Italia"
  },
  {
    "lineIndex": 442,
    "name": "Re.Working",
    "area": "Business district",
    "oldLat": 40.853,
    "oldLng": 14.268,
    "lat": 40.85704,
    "lng": 14.28281,
    "distKm": 1.32,
    "osm": "re.working, Piazza Aldo Moro, Centro Direzionale di Napoli, Municipalità 4, Napoli, Campania, 80143, Italia"
  },
  {
    "lineIndex": 451,
    "name": "Bourbon Street",
    "area": "Centro Storico",
    "oldLat": 40.8502,
    "oldLng": 14.25078,
    "lat": 40.8502,
    "lng": 14.25078,
    "distKm": 0,
    "osm": "Bourbon Street, Via Vincenzo Bellini, San Lorenzo, Municipalità 4, Napoli, Campania, 80135, Italia"
  },
  {
    "lineIndex": 452,
    "name": "Kestè",
    "area": "Centro",
    "oldLat": 40.84586,
    "oldLng": 14.25583,
    "lat": 40.84586,
    "lng": 14.25583,
    "distKm": 0,
    "osm": "Kestè, 26/27, Via San Giovanni Maggiore Pignatelli, Rione Carità, Porto, Municipalità 2, Napoli, Campania, 80100, Italia"
  },
  {
    "lineIndex": 456,
    "name": "Casa della Musica",
    "area": "Fuorigrotta",
    "oldLat": 40.82062,
    "oldLng": 14.1769,
    "lat": 40.82062,
    "lng": 14.1769,
    "distKm": 0,
    "osm": "Casa della Musica Federico I, 115, Via Corrado Barbagallo, Bagnoli, Municipalità 10, Coroglio, Napoli, Campania, 80124, Italia"
  },
  {
    "lineIndex": 458,
    "name": "Craft",
    "area": "Centro",
    "oldLat": 40.85014,
    "oldLng": 14.25079,
    "lat": 40.85014,
    "lng": 14.25079,
    "distKm": 0,
    "osm": "Craft, Via Vincenzo Bellini, San Lorenzo, Municipalità 4, Napoli, Campania, 80135, Italia"
  },
  {
    "lineIndex": 459,
    "name": "Beer Garden Coroglio",
    "area": "Bagnoli",
    "oldLat": 40.80072,
    "oldLng": 14.177,
    "lat": 40.80072,
    "lng": 14.177,
    "distKm": 0,
    "osm": "Beer Garden, Discesa Coroglio, Posillipo, Municipalità 1, Coroglio, Napoli, Campania, 80124, Italia"
  },
  {
    "lineIndex": 467,
    "name": "Arenile Reload",
    "area": "Bagnoli",
    "oldLat": 40.81294,
    "oldLng": 14.16587,
    "lat": 40.81294,
    "lng": 14.16587,
    "distKm": 0,
    "osm": "Arenile Reload, Piazza Bagnoli, Bagnoli, Municipalità 10, Coroglio, Napoli, Campania, 80124, Italia"
  },
  {
    "lineIndex": 468,
    "name": "Nabilah",
    "area": "Bacoli",
    "oldLat": 40.796,
    "oldLng": 14.08,
    "lat": 40.81312,
    "lng": 14.04564,
    "distKm": 3.46,
    "osm": "Nabilah Beach Club, Via Spiaggia Romana, Torre di Cappella, Torregaveta, Bacoli, Napoli, Campania, 80072, Italia"
  },
  {
    "lineIndex": 479,
    "name": "Teatro di San Carlo",
    "area": "Via San Carlo",
    "oldLat": 40.83737,
    "oldLng": 14.24981,
    "lat": 40.83737,
    "lng": 14.24981,
    "distKm": 0,
    "osm": "Teatro di San Carlo, 98, Via San Carlo, San Ferdinando, Municipalità 1, Napoli, Campania, 80132, Italia"
  },
  {
    "lineIndex": 480,
    "name": "Teatro Bellini",
    "area": "Centro",
    "oldLat": 40.85096,
    "oldLng": 14.25089,
    "lat": 40.85096,
    "lng": 14.25089,
    "distKm": 0,
    "osm": "Teatro Bellini, Via Conte di Ruvo, San Lorenzo, Municipalità 4, Napoli, Campania, 80135, Italia"
  },
  {
    "lineIndex": 481,
    "name": "Teatro Mercadante",
    "area": "Piazza Municipio",
    "oldLat": 40.8399,
    "oldLng": 14.25433,
    "lat": 40.8399,
    "lng": 14.25433,
    "distKm": 0,
    "osm": "Teatro Mercadante, 46, Piazza Municipio, San Ferdinando, Municipalità 1, Napoli, Campania, 80133, Italia"
  },
  {
    "lineIndex": 483,
    "name": "Teatro San Ferdinando",
    "area": "Centro",
    "oldLat": 40.857,
    "oldLng": 14.26335,
    "lat": 40.857,
    "lng": 14.26335,
    "distKm": 0,
    "osm": "Teatro San Ferdinando, Via Titina De Filippo, Borgo Sant'Antonio Abate, San Lorenzo, Municipalità 4, Napoli, Campania, 80139, Italia"
  },
  {
    "lineIndex": 484,
    "name": "Teatro Augusteo",
    "area": "Piazzetta Augusteo",
    "oldLat": 40.83903,
    "oldLng": 14.24796,
    "lat": 40.83903,
    "lng": 14.24796,
    "distKm": 0,
    "osm": "Teatro Augusteo, 263, Piazzetta Duca d'Aosta, San Ferdinando, Municipalità 1, Napoli, Campania, 80132, Italia"
  },
  {
    "lineIndex": 485,
    "name": "Teatro Diana",
    "area": "Vomero",
    "oldLat": 40.84309,
    "oldLng": 14.22841,
    "lat": 40.84309,
    "lng": 14.22841,
    "distKm": 0,
    "osm": "Teatro Diana, Via Luca Giordano, Rione Antignano, Vomero, Municipalità 5, Napoli, Campania, 80127, Italia"
  },
  {
    "lineIndex": 486,
    "name": "Teatro Sannazaro",
    "area": "Via Chiaia",
    "oldLat": 40.83606,
    "oldLng": 14.24335,
    "lat": 40.83606,
    "lng": 14.24335,
    "distKm": 0,
    "osm": "Teatro Sannazaro, Largo Sant'Orsola, Pizzofalcone, San Ferdinando, Municipalità 1, Napoli, Campania, 80121, Italia"
  },
  {
    "lineIndex": 487,
    "name": "Multicinema Modernissimo",
    "area": "Centro Storico",
    "oldLat": 40.8477,
    "oldLng": 14.25026,
    "lat": 40.8477,
    "lng": 14.25026,
    "distKm": 0,
    "osm": "Multicinema Modernissimo, Via Cisterna dell'Olio, Rione Montesanto, San Giuseppe, Municipalità 2, Napoli, Campania, 80100, Italia"
  },
  {
    "lineIndex": 488,
    "name": "The Space Cinema",
    "area": "Fuorigrotta",
    "oldLat": 40.828,
    "oldLng": 14.195,
    "lat": 40.8221,
    "lng": 14.17727,
    "distKm": 1.63,
    "osm": "The Space Cinema Napoli, 46, Viale Giochi del Mediterraneo, Bagnoli, Municipalità 10, Napoli, Campania, 80125, Italia"
  },
  {
    "lineIndex": 495,
    "name": "Murphy's Law",
    "area": "Vomero",
    "oldLat": 40.845,
    "oldLng": 14.2282,
    "lat": 40.6566,
    "lng": 14.40984,
    "distKm": 25.94,
    "osm": "Murphy's law, Corso Caulino, Montechiaro, Vico Equense, Napoli, Campania, 80068, Italia"
  },
  {
    "lineIndex": 497,
    "name": "Flannery",
    "area": "Fuorigrotta",
    "oldLat": 40.82471,
    "oldLng": 14.20422,
    "lat": 40.82471,
    "lng": 14.20422,
    "distKm": 0,
    "osm": "Flannery Pub, Via Brigata Bologna, Fuorigrotta, Municipalità 10, Napoli, Campania, 80125, Italia"
  },
  {
    "lineIndex": 498,
    "name": "Biergarten",
    "area": "Vomero",
    "oldLat": 40.84169,
    "oldLng": 14.22727,
    "lat": 40.84169,
    "lng": 14.22727,
    "distKm": 0,
    "osm": "Biergarten, 10 A, Via Mattia Preti, Vomero, Municipalità 5, Napoli, Campania, 80127, Italia"
  },
  {
    "lineIndex": 499,
    "name": "L'Oca Nera",
    "area": "Vomero",
    "oldLat": 40.84308,
    "oldLng": 14.22328,
    "lat": 40.84308,
    "lng": 14.22328,
    "distKm": 0,
    "osm": "L'oca nera, Vico Acitillo, Vomero, Municipalità 5, Napoli, Campania, 80127, Italia"
  },
  {
    "lineIndex": 500,
    "name": "Frank Malone",
    "area": "Vomero",
    "oldLat": 40.84595,
    "oldLng": 14.23731,
    "lat": 40.84595,
    "lng": 14.23731,
    "distKm": 0,
    "osm": "\"Frank Malone\" pub e birreria, 13b, Via Tito Angelini, Vomero, Municipalità 5, Napoli, Campania, 80129, Italia"
  },
  {
    "lineIndex": 501,
    "name": "Penny Black",
    "area": "Vomero",
    "oldLat": 40.84637,
    "oldLng": 14.23029,
    "lat": 40.84637,
    "lng": 14.23029,
    "distKm": 0,
    "osm": "The Penny Black, Via Enrico Alvino, Rione Antignano, Vomero, Municipalità 5, Napoli, Campania, 80129, Italia"
  }
]